{
    "places": [
       { "id":  1, "name": "Innovation Birmingham Campus", "Latitude": 52.48871909, "longitude": -1.88758850 },
       { "id":  2, "name": "Gosta Green", "Latitude": 52.4878110, "longitude": -1.8872666 },
       { "id":  3, "name": "Sacks Of Potatoes", "Latitude": 52.487334086, "longitude": -1.888135671 },
       { "id":  4, "name": "Aston University Entrance", "Latitude": 52.48678529, "longitude": -1.88931584 },
       { "id":  5, "name": "Tesco", "Latitude": 52.4857660, "longitude": -1.8900775 },
       { "id":  6, "name": "Lakeside", "Latitude": 52.484090, "longitude": -1.8898522 }
    ]
}